[{"id":"c1401a7b-5ca2-4fc8-9f16-c5eba41ce8be","name":"Riffpath","city":"Tanjiaqiao","street":"27 Jenifer Terrace","open_time":"17:11","close_time":"8:55","work_time":"пн-вс с 17:11 до 8:55","phone":"86-(248)249-2921","lat":"30.17444","lng":"118.26833"},
{"id":"325782f8-96d0-4435-9012-d335c7f6f152","name":"Aibox","city":"Takanabe","street":"90797 Summit Point","open_time":"14:23","close_time":"11:23","work_time":"пн-вс с 14:23 до 11:23","phone":"81-(750)506-1200","lat":"32.13333","lng":"131.5"},
{"id":"c838cdcc-4114-4f64-89de-fdb20c1f7b36","name":"Lazz","city":"Opol","street":"328 Golden Leaf Lane","open_time":"15:46","close_time":"19:39","work_time":"пн-вс с 15:46 до 19:39","phone":"63-(480)100-2044","lat":"8.52139","lng":"124.57111"},
{"id":"a8683722-9880-4cdb-8d52-388588c8c1a0","name":"Oyondu","postal_code":"WC1B","city":"London","street":"62 Independence Park","open_time":"15:41","close_time":"17:21","work_time":"пн-вс с 15:41 до 17:21","phone":"44-(661)266-9544","lat":"51.5085","lng":"-0.1257"},
{"id":"1ba2cd83-d603-4e89-8251-411c8ddd9ede","name":"Thoughtbridge","city":"Grojec","street":"71 Doe Crossing Crossing","open_time":"8:46","close_time":"9:52","work_time":"пн-вс с 8:46 до 9:52","phone":"48-(142)313-9866","lat":"50.08975","lng":"19.55704"},
{"id":"e3cfd503-a94f-4670-b7da-4536145acff4","name":"Jayo","city":"San Carlos","street":"34385 Red Cloud Street","open_time":"13:04","close_time":"12:54","work_time":"пн-вс с 13:04 до 12:54","phone":"54-(398)365-6410","lat":"-31.17761","lng":"-65.10245"},
{"id":"504ed61b-5287-4cd7-ac76-4c0c24653fd2","name":"Skaboo","postal_code":"56030","city":"San Juan","street":"04634 Dawn Avenue","open_time":"15:39","close_time":"20:49","work_time":"пн-вс с 15:39 до 20:49","phone":"52-(517)249-2796","lat":"19.6886","lng":"-98.8626"},
{"id":"3a35116f-6c4f-4b9c-b7b5-8354bed7def7","name":"Jabbercube","city":"An Lão","street":"92 Northfield Avenue","open_time":"15:30","close_time":"18:17","work_time":"пн-вс с 15:30 до 18:17","phone":"84-(958)440-4189","lat":"20.82294","lng":"106.55575"},
{"id":"8dbfca73-e0cf-4ccc-a9d8-2a54af278de5","name":"Ailane","postal_code":"98109","city":"Seattle","street":"90644 Lighthouse Bay Place","open_time":"15:16","close_time":"19:52","work_time":"пн-вс с 15:16 до 19:52","phone":"1-(425)129-2616","lat":"47.6339","lng":"-122.3476"},
{"id":"ede49047-bd38-4b3c-a905-ba7c25d31696","name":"Zoomcast","city":"Irosin","street":"92 Northland Way","open_time":"20:59","close_time":"14:12","work_time":"пн-вс с 20:59 до 14:12","phone":"63-(913)773-4235","lat":"12.70013","lng":"124.03221"},
{"id":"92d12303-a6fe-4ebd-b6fa-2f25812222d8","name":"Mymm","postal_code":"07505","city":"Paterson","street":"6651 Oakridge Parkway","open_time":"15:58","close_time":"17:25","work_time":"пн-вс с 15:58 до 17:25","phone":"1-(973)719-9413","lat":"40.9166","lng":"-74.174"},
{"id":"81d2c703-97ec-4bf4-9d3a-cc4ad42643ec","name":"Skiptube","city":"Río Cauto","street":"631 North Terrace","open_time":"19:24","close_time":"9:27","work_time":"пн-вс с 19:24 до 9:27","phone":"53-(174)104-0972","lat":"20.56284","lng":"-76.92122"},
{"id":"6dab0246-88cb-4280-9e79-315fc4d06869","name":"Yacero","city":"Puan","street":"54074 Oriole Court","open_time":"12:51","close_time":"8:01","work_time":"пн-вс с 12:51 до 8:01","phone":"54-(218)141-2031","lat":"-37.54576","lng":"-62.76723"},
{"id":"6e16d7d4-e424-44ef-8fa7-af71b886a7dc","name":"Kwimbee","city":"Mayfa‘ah","street":"0191 Mallard Park","open_time":"17:34","close_time":"17:59","work_time":"пн-вс с 17:34 до 17:59","phone":"967-(845)684-8115","lat":"14.27042","lng":"47.5612"},
{"id":"6b679737-2e46-43c8-8d39-0d4a1aae82c1","name":"Jaxbean","city":"Gungguh","street":"94105 Mifflin Point","open_time":"9:21","close_time":"18:00","work_time":"пн-вс с 9:21 до 18:00","phone":"62-(431)289-4181","lat":"-7.035","lng":"113.5599"},
{"id":"4b68d057-94f2-44b6-81b5-e2c75760df86","name":"Oyoyo","city":"Melekyne","street":"26419 Memorial Hill","open_time":"9:27","close_time":"11:59","work_time":"пн-вс с 9:27 до 11:59","phone":"380-(735)330-3829","lat":"46.95957","lng":"37.39981"},
{"id":"04d141fe-8c12-4b3b-bff6-ac8eda57703f","name":"Skiba","city":"Paita","street":"95 Green Lane","open_time":"8:27","close_time":"12:37","work_time":"пн-вс с 8:27 до 12:37","phone":"51-(392)797-7469","lat":"-5.08917","lng":"-81.11444"},
{"id":"a682843a-b5d5-4069-bb66-d5fe4062d2e9","name":"Jaxspan","city":"Guri-si","street":"1 Thierer Hill","open_time":"14:06","close_time":"10:33","work_time":"пн-вс с 14:06 до 10:33","phone":"82-(582)834-8298","lat":"37.5986","lng":"127.1394"},
{"id":"6589f22e-b36c-48d4-aea1-db2dd9454bd4","name":"Camimbo","city":"Canguaretama","street":"16736 Corben Court","open_time":"14:03","close_time":"20:45","work_time":"пн-вс с 14:03 до 20:45","phone":"55-(559)348-3086","lat":"-6.38","lng":"-35.12889"},
{"id":"86d709f9-b026-477e-9b57-c06b74273f1e","name":"Teklist","city":"Muikamachi","street":"741 Parkside Pass","open_time":"8:14","close_time":"13:58","work_time":"пн-вс с 8:14 до 13:58","phone":"81-(842)621-9730","lat":"37.06667","lng":"138.88333"},
{"id":"884f1dba-2f57-4eb6-9e1f-d920248f9522","name":"Gabcube","city":"Oak Bay","street":"14 Menomonie Road","open_time":"18:15","close_time":"12:04","work_time":"пн-вс с 18:15 до 12:04","phone":"1-(722)969-0080","lat":"48.44964","lng":"-123.3026"},
{"id":"a05f4dde-8396-4e7c-a8d4-d5edf64ede6f","name":"Yadel","postal_code":"37044 CEDEX 9","city":"Tours","street":"9050 Mcbride Plaza","open_time":"13:37","close_time":"15:05","work_time":"пн-вс с 13:37 до 15:05","phone":"33-(653)290-5989","lat":"47.3833","lng":"0.6833"},
{"id":"7ebfe78e-692a-4323-9959-cebfd0d36e6d","name":"Tavu","postal_code":"6120-215","city":"Carrascal","street":"73893 Granby Place","open_time":"13:34","close_time":"11:15","work_time":"пн-вс с 13:34 до 11:15","phone":"351-(225)263-5349","lat":"39.7167","lng":"-7.9833"},
{"id":"96f92a41-d785-4bdb-9182-829c5a6e66c1","name":"Divavu","city":"Baiima","street":"232 Bayside Parkway","open_time":"20:18","close_time":"16:28","work_time":"пн-вс с 20:18 до 16:28","phone":"232-(105)947-6557","lat":"8.1","lng":"-11.85"},
{"id":"9de6860b-80d8-4b09-8b75-b853a9a80b64","name":"Jaxworks","city":"Chlumčany","street":"4 Acker Street","open_time":"8:49","close_time":"12:20","work_time":"пн-вс с 8:49 до 12:20","phone":"420-(751)119-0440","lat":"49.63256","lng":"13.31323"},
{"id":"308b650f-eba6-468e-b0d7-387fd8eddae1","name":"Zoomdog","city":"Toritama","street":"9201 Coleman Drive","open_time":"17:38","close_time":"14:44","work_time":"пн-вс с 17:38 до 14:44","phone":"55-(804)456-3570","lat":"-8.00667","lng":"-36.05667"},
{"id":"bc19c7ab-181d-43fe-ab70-1fa4473ee257","name":"Browsetype","city":"Mirsíni","street":"87296 Anderson Road","open_time":"9:57","close_time":"11:43","work_time":"пн-вс с 9:57 до 11:43","phone":"30-(705)749-5649","lat":"37.91667","lng":"21.23333"},
{"id":"0b213623-4026-44db-a872-c0b940909a1b","name":"Skilith","postal_code":"64234 CEDEX","city":"Lescar","street":"23331 Heath Crossing","open_time":"17:09","close_time":"18:25","work_time":"пн-вс с 17:09 до 18:25","phone":"33-(758)807-5785","lat":"43.3333","lng":"-0.4167"},
{"id":"2ba72676-f1c4-4bbd-b25a-0415620b5a72","name":"Mymm","city":"Lugovoy","street":"5358 Fordem Drive","open_time":"17:42","close_time":"14:35","work_time":"пн-вс с 17:42 до 14:35","phone":"7-(581)925-3757","lat":"42.94196","lng":"72.76098"},
{"id":"b6f3de4d-061d-471f-8d5d-0347bb19d63d","name":"Kwideo","city":"Zhaxirabdain","street":"39 Autumn Leaf Parkway","open_time":"17:36","close_time":"17:21","work_time":"пн-вс с 17:36 до 17:21","phone":"86-(106)628-1348","lat":"29.22983","lng":"94.06445"},
{"id":"4ccb3f45-53f4-4299-a107-9b7335150944","name":"Aimbo","city":"Cangzhou","street":"793 Continental Parkway","open_time":"11:32","close_time":"11:43","work_time":"пн-вс с 11:32 до 11:43","phone":"86-(512)436-2801","lat":"38.31667","lng":"116.86667"},
{"id":"36e643d1-9e59-45d0-b59d-0e18b8778a83","name":"Omba","city":"Plei Kần","street":"651 Sage Alley","open_time":"8:50","close_time":"10:47","work_time":"пн-вс с 8:50 до 10:47","phone":"84-(455)503-7607","lat":"14.70495","lng":"107.6862"},
{"id":"a501a7f5-9fea-455c-9e03-4d8a477ce135","name":"JumpXS","postal_code":"02004 CEDEX","city":"Laon","street":"82 Scofield Parkway","open_time":"17:51","close_time":"11:54","work_time":"пн-вс с 17:51 до 11:54","phone":"33-(716)726-6489","lat":"49.5667","lng":"3.6167"},
{"id":"77f058ce-8cd9-4b3c-bb52-a7f8be27b127","name":"Skipstorm","city":"Longba","street":"39 Scoville Lane","open_time":"19:45","close_time":"10:39","work_time":"пн-вс с 19:45 до 10:39","phone":"86-(731)475-6942","lat":"33.62476","lng":"105.29447"},
{"id":"b0ebe718-e0bf-4d4c-a4ae-f8fd16b3cb2d","name":"Edgeclub","city":"Middleton","street":"1 Sunfield Street","open_time":"19:09","close_time":"13:53","work_time":"пн-вс с 19:09 до 13:53","phone":"1-(431)502-8269","lat":"44.95015","lng":"-65.0655"},
{"id":"e0a4bf53-26f2-4e2d-8f21-56773c388ac0","name":"Thoughtbridge","city":"Sinargalih","street":"337 Iowa Parkway","open_time":"16:08","close_time":"14:11","work_time":"пн-вс с 16:08 до 14:11","phone":"62-(398)329-6378","lat":"-7.3574","lng":"108.6382"},
{"id":"17f10f7f-3fa2-44c1-99a7-bb2a0c3f77cc","name":"Yodel","city":"Coripata","street":"7610 Roth Hill","open_time":"16:57","close_time":"17:54","work_time":"пн-вс с 16:57 до 17:54","phone":"591-(685)533-4142","lat":"-16.3","lng":"-67.6"},
{"id":"89680ec1-5189-4a29-914b-8326175f34ac","name":"Jazzy","postal_code":"645 51","city":"Strängnäs","street":"81383 Washington Circle","open_time":"18:28","close_time":"15:21","work_time":"пн-вс с 18:28 до 15:21","phone":"46-(692)851-6229","lat":"59.3774","lng":"17.0312"},
{"id":"14f302a4-7b5c-43da-bd8f-e2f64864d976","name":"Leexo","city":"Calape","street":"44 Tennyson Point","open_time":"10:33","close_time":"13:13","work_time":"пн-вс с 10:33 до 13:13","phone":"63-(237)832-5961","lat":"9.8922","lng":"123.8748"},
{"id":"2a1b7753-e525-407c-8d3f-72446168d5a8","name":"Devcast","city":"Weishui","street":"7 Village Green Center","open_time":"8:49","close_time":"20:53","work_time":"пн-вс с 8:49 до 20:53","phone":"86-(947)517-0962","lat":"29.98709","lng":"111.61146"},
{"id":"123baacc-a474-4403-82ee-d9952d78e077","name":"Livepath","city":"Kelin","street":"71087 Merry Court","open_time":"17:01","close_time":"16:14","work_time":"пн-вс с 17:01 до 16:14","phone":"86-(363)304-0729","lat":"48.71603","lng":"128.94221"},
{"id":"348914db-aa45-4947-a07e-4768a6d78f60","name":"Fanoodle","city":"Vårdö","street":"95606 Buena Vista Drive","open_time":"19:30","close_time":"20:08","work_time":"пн-вс с 19:30 до 20:08","phone":"358-(557)354-5029","lat":"60.25","lng":"20.38333"},
{"id":"f49ac398-bc36-4693-924f-15b9dd860862","name":"Meedoo","city":"Duwe","street":"792 Annamark Terrace","open_time":"20:22","close_time":"16:10","work_time":"пн-вс с 20:22 до 16:10","phone":"62-(562)367-8514","lat":"-7.8742","lng":"114.0014"},
{"id":"cfbeefc0-aecf-4e6b-9b57-20ce985623e8","name":"Blogtags","city":"Trảng Bom","street":"73410 Waxwing Park","open_time":"8:19","close_time":"10:03","work_time":"пн-вс с 8:19 до 10:03","phone":"84-(318)528-0398","lat":"10.95358","lng":"107.00589"},
{"id":"9812cf82-48b0-4688-8e95-ad974344fab7","name":"Flashpoint","city":"Paucarbamba","street":"32370 Warbler Street","open_time":"20:13","close_time":"12:12","work_time":"пн-вс с 20:13 до 12:12","phone":"51-(333)945-6065","lat":"-12.55","lng":"-74.55"},
{"id":"464fed97-0ef4-4ad0-8364-7c0b5082e331","name":"Skynoodle","city":"San Nicolas","street":"0 2nd Terrace","open_time":"17:04","close_time":"18:24","work_time":"пн-вс с 17:04 до 18:24","phone":"63-(934)632-9255","lat":"10.68444","lng":"122.49556"},
{"id":"804bf55d-a08a-4e30-b6d5-5788de7bf77d","name":"Gabspot","city":"Malbug","street":"02497 Golf Drive","open_time":"10:35","close_time":"9:50","work_time":"пн-вс с 10:35 до 9:50","phone":"63-(970)446-3180","lat":"12.0563","lng":"123.6461"},
{"id":"d6170e74-29fb-4170-affb-3cd16f37b2f2","name":"Gigaclub","city":"Warmbaths","street":"63 Kropf Trail","open_time":"19:18","close_time":"16:16","work_time":"пн-вс с 19:18 до 16:16","phone":"27-(740)901-2623","lat":"-24.88333","lng":"28.28333"},
{"id":"0302d8b3-b8fc-450d-a9b0-3da8f966a849","name":"Digitube","city":"Lanxi","street":"991 Washington Junction","open_time":"11:57","close_time":"15:03","work_time":"пн-вс с 11:57 до 15:03","phone":"86-(866)511-7338","lat":"46.25785","lng":"126.28269"},
{"id":"fe4f2ad7-83b7-42be-aa1a-fe15f383f458","name":"Dynabox","postal_code":"05622","city":"Alor Setar","street":"83 Banding Avenue","open_time":"16:29","close_time":"19:12","work_time":"пн-вс с 16:29 до 19:12","phone":"60-(827)547-6830","lat":"6.1194","lng":"100.3677"},
{"id":"89de1eba-80a8-44c6-b3c0-ce5dba17e3e4","name":"Chatterbridge","city":"Otra Banda","street":"7 Buell Hill","open_time":"9:20","close_time":"14:19","work_time":"пн-вс с 9:20 до 14:19","phone":"1-(577)686-8190","lat":"18.65016","lng":"-68.66281"},
{"id":"424be1af-59d9-4cbf-986d-0014e6e0f451","name":"Dynazzy","city":"General Luna","street":"211 Monica Pass","open_time":"20:59","close_time":"11:22","work_time":"пн-вс с 20:59 до 11:22","phone":"63-(192)318-0590","lat":"9.78417","lng":"126.15889"},
{"id":"123d477d-e689-4630-998f-60b4c3b5a8b2","name":"Aibox","postal_code":"3270-152","city":"Tojeira","street":"731 Toban Hill","open_time":"8:07","close_time":"19:53","work_time":"пн-вс с 8:07 до 19:53","phone":"351-(920)912-2900","lat":"39.8981","lng":"-8.2852"},
{"id":"b4087c45-03be-4dd8-83ac-a35c25a32a9e","name":"Photospace","city":"Maibu","street":"97186 Mosinee Crossing","open_time":"14:39","close_time":"14:56","work_time":"пн-вс с 14:39 до 14:56","phone":"63-(923)493-3778","lat":"6.57","lng":"124.79361"},
{"id":"787dde3d-12b0-4a0b-a766-ef1001c06466","name":"Dynabox","city":"Ampanihy","street":"943 Loftsgordon Plaza","open_time":"8:41","close_time":"14:49","work_time":"пн-вс с 8:41 до 14:49","phone":"261-(697)642-6748","lat":"-24.6937","lng":"44.74581"},
{"id":"3c42b775-b85f-4a9f-b0d6-3318456a91e9","name":"Browsecat","postal_code":"0315","city":"Oslo","street":"55244 Delaware Point","open_time":"19:26","close_time":"18:37","work_time":"пн-вс с 19:26 до 18:37","phone":"47-(822)739-0377","lat":"59.9127","lng":"10.7461"},
{"id":"e826d6d1-5a16-47f5-8f95-30a2ae5de817","name":"Browsezoom","postal_code":"5100-005","city":"Lamego","street":"03 Talmadge Lane","open_time":"16:23","close_time":"12:02","work_time":"пн-вс с 16:23 до 12:02","phone":"351-(280)396-6860","lat":"41.0889","lng":"-7.7833"},
{"id":"3befe122-b987-4c37-9063-096f3f9ca1dd","name":"Gigazoom","city":"Smolino","street":"958 Gerald Parkway","open_time":"16:03","close_time":"14:58","work_time":"пн-вс с 16:03 до 14:58","phone":"7-(100)672-0831","lat":"56.27526","lng":"43.09109"},
{"id":"70eda1a1-35f7-4e6b-af0b-fd5eccfc09c4","name":"Ailane","city":"Toguchin","street":"49469 Hudson Parkway","open_time":"14:31","close_time":"13:43","work_time":"пн-вс с 14:31 до 13:43","phone":"7-(412)334-1538","lat":"55.23528","lng":"84.38583"},
{"id":"570693d0-d749-4101-afb8-61fc77eb8656","name":"Mynte","city":"Pignon","street":"024 Pankratz Pass","open_time":"16:01","close_time":"18:51","work_time":"пн-вс с 16:01 до 18:51","phone":"509-(347)705-6921","lat":"19.33512","lng":"-72.11252"},
{"id":"49f37269-84af-4bd6-a249-d9c114826a50","name":"Fliptune","city":"Kongjiang","street":"8896 Graedel Circle","open_time":"8:19","close_time":"13:14","work_time":"пн-вс с 8:19 до 13:14","phone":"86-(653)235-9576","lat":"25.28181","lng":"114.617"},
{"id":"789e910a-f5cd-4ece-aebd-0d3e9ba59cfa","name":"Realfire","city":"Alvarães","street":"880 Armistice Circle","open_time":"8:31","close_time":"13:07","work_time":"пн-вс с 8:31 до 13:07","phone":"55-(652)819-2513","lat":"-3.22083","lng":"-64.80417"},
{"id":"f3e4f7d9-6292-466e-a14c-ad05bbffac54","name":"Trudoo","city":"Fencheng","street":"5423 Packers Plaza","open_time":"8:35","close_time":"13:14","work_time":"пн-вс с 8:35 до 13:14","phone":"86-(189)187-7455","lat":"35.81765","lng":"111.27425"},
{"id":"edc35dbf-eacc-4a32-8cb5-dfb07a574927","name":"Eidel","city":"Tupaciguara","street":"779 Knutson Circle","open_time":"9:07","close_time":"9:40","work_time":"пн-вс с 9:07 до 9:40","phone":"55-(606)927-3186","lat":"-18.59222","lng":"-48.705"},
{"id":"d1336a85-f1e8-4172-8af3-6fab0f8ad681","name":"Skipfire","city":"Uuemõisa","street":"84208 Lerdahl Crossing","open_time":"18:36","close_time":"16:10","work_time":"пн-вс с 18:36 до 16:10","phone":"372-(922)216-5588","lat":"58.93944","lng":"23.58944"},
{"id":"32f08137-851a-41b8-ba7a-6a5e0868b7ba","name":"Zoombox","city":"Pathum Rat","street":"27 American Ash Circle","open_time":"18:03","close_time":"17:59","work_time":"пн-вс с 18:03 до 17:59","phone":"66-(926)358-3444","lat":"15.6345","lng":"103.34325"},
{"id":"6dab1c5c-98a8-47d2-8997-12c921f081c9","name":"Skibox","city":"Liljendal","street":"5 Brown Parkway","open_time":"11:55","close_time":"8:36","work_time":"пн-вс с 11:55 до 8:36","phone":"358-(948)780-6362","lat":"60.56667","lng":"26.05"},
{"id":"fc90ff64-bc50-4daf-876b-3c239dc91677","name":"Twimbo","city":"Intipucá","street":"82 Maryland Circle","open_time":"19:39","close_time":"19:11","work_time":"пн-вс с 19:39 до 19:11","phone":"503-(473)210-3258","lat":"13.19694","lng":"-88.05444"},
{"id":"32d62ff9-ba38-4439-af67-ace167c9bbe4","name":"Minyx","postal_code":"12683","city":"Berlin","street":"1 Porter Junction","open_time":"19:28","close_time":"9:47","work_time":"пн-вс с 19:28 до 9:47","phone":"49-(452)555-8738","lat":"52.5167","lng":"13.4"},
{"id":"5f7af50f-26af-441c-b100-9be6224dbc94","name":"Rooxo","city":"Ḩabūr","street":"9 Gale Way","open_time":"9:53","close_time":"8:48","work_time":"пн-вс с 9:53 до 8:48","phone":"967-(759)248-0146","lat":"16.05097","lng":"43.70699"},
{"id":"9bf2a39a-6652-4790-bf53-84ed524b1a42","name":"Edgetag","postal_code":"3080-222","city":"Buarcos","street":"3 Ludington Terrace","open_time":"20:18","close_time":"12:21","work_time":"пн-вс с 20:18 до 12:21","phone":"351-(895)814-2707","lat":"40.1667","lng":"-8.8833"},
{"id":"9805f702-61a9-4bee-a67a-728a7ca94b37","name":"Youbridge","postal_code":"9265","city":"Tromsø","street":"9 Thierer Street","open_time":"18:07","close_time":"8:52","work_time":"пн-вс с 18:07 до 8:52","phone":"47-(551)216-3446","lat":"69.6489","lng":"18.9551"},
{"id":"2d8bcf84-1ca5-4853-bc8a-f745721fc005","name":"Rhycero","postal_code":"2865-613","city":"Morgados","street":"529 Onsgard Park","open_time":"9:25","close_time":"8:32","work_time":"пн-вс с 9:25 до 8:32","phone":"351-(727)742-8947","lat":"38.638","lng":"-9.0253"},
{"id":"1c4222b7-eb89-4621-9a72-2cd7206b43d6","name":"Yombu","city":"Stalbe","street":"0620 Brown Alley","open_time":"10:44","close_time":"17:52","work_time":"пн-вс с 10:44 до 17:52","phone":"371-(652)811-7196","lat":"57.37065","lng":"25.03106"},
{"id":"9e159b51-3acb-4036-a104-851ea5226b15","name":"Myworks","city":"Jasugih Selatan","street":"61102 Hintze Trail","open_time":"12:42","close_time":"12:29","work_time":"пн-вс с 12:42 до 12:29","phone":"62-(719)806-1094","lat":"-6.4347","lng":"106.0015"},
{"id":"647da353-4362-491f-919d-5c0847a1a0ee","name":"Einti","postal_code":"40618","city":"Frankfort","street":"56 Comanche Street","open_time":"20:58","close_time":"17:25","work_time":"пн-вс с 20:58 до 17:25","phone":"1-(502)758-0766","lat":"38.2341","lng":"-84.8748"},
{"id":"308ef554-eebe-45c0-bf8f-d42b0ec9a70e","name":"Livepath","city":"Savran’","street":"4526 2nd Place","open_time":"18:55","close_time":"8:49","work_time":"пн-вс с 18:55 до 8:49","phone":"380-(917)132-4801","lat":"48.13219","lng":"30.08247"},
{"id":"e8a51049-d9ab-4cbd-ab30-a25776284941","name":"Eazzy","city":"Huanghuai","street":"36493 Homewood Place","open_time":"19:57","close_time":"19:59","work_time":"пн-вс с 19:57 до 19:59","phone":"86-(719)124-6480","lat":"24.46836","lng":"115.77514"},
{"id":"244b903d-e79e-4fc8-93c9-81dfd1ff7934","name":"Izio","postal_code":"33355","city":"Fort Lauderdale","street":"6 Katie Court","open_time":"9:55","close_time":"10:06","work_time":"пн-вс с 9:55 до 10:06","phone":"1-(754)390-7611","lat":"26.1457","lng":"-80.4483"},
{"id":"d9cd31b8-d121-495f-865c-21247542f2b5","name":"Feedfire","city":"Dajin","street":"863 Pennsylvania Point","open_time":"14:30","close_time":"12:34","work_time":"пн-вс с 14:30 до 12:34","phone":"86-(279)782-3225","lat":"31.50955","lng":"108.44579"},
{"id":"05178ae2-b76c-452f-bc24-c95016aae925","name":"Yata","city":"Wichit","street":"68 Bay Hill","open_time":"10:15","close_time":"12:34","work_time":"пн-вс с 10:15 до 12:34","phone":"66-(484)618-1072","lat":"7.8894","lng":"98.38523"},
{"id":"eb734ca6-3066-4030-acd8-5ac901f998ed","name":"Trudeo","city":"Pingshan","street":"0 Katie Avenue","open_time":"9:19","close_time":"14:01","work_time":"пн-вс с 9:19 до 14:01","phone":"86-(681)634-1210","lat":"25.51985","lng":"102.47581"},
{"id":"f49543d2-bf3c-4c3c-99c7-33f45e3b2028","name":"Kazu","city":"Krinichnaya","street":"0272 Golf Junction","open_time":"13:44","close_time":"16:35","work_time":"пн-вс с 13:44 до 16:35","phone":"380-(976)230-8726","lat":"48.12899","lng":"38.02597"},
{"id":"d416df7e-5a88-4097-8712-877bfcb3db64","name":"Dabfeed","city":"Jonava","street":"96845 Eagle Crest Alley","open_time":"10:48","close_time":"11:03","work_time":"пн-вс с 10:48 до 11:03","phone":"370-(167)545-5538","lat":"55.08333","lng":"24.28333"},
{"id":"851c2aea-786f-4ffe-af0f-6616727e8c0e","name":"Gabspot","city":"Lajarik","street":"260 Mallory Court","open_time":"17:52","close_time":"17:39","work_time":"пн-вс с 17:52 до 17:39","phone":"62-(663)897-1635","lat":"-9.9755","lng":"120.4083"},
{"id":"9686c16c-dc57-4fde-b18a-b9652a93bb41","name":"Jabbercube","city":"Shuangzhu","street":"32 Amoth Park","open_time":"13:12","close_time":"17:23","work_time":"пн-вс с 13:12 до 17:23","phone":"86-(138)151-3283","lat":"26.63114","lng":"118.6457"},
{"id":"2ee1bc6f-1849-436d-8a18-e247d18b76e9","name":"Topicblab","postal_code":"87592","city":"Santa Fe","street":"52603 Londonderry Trail","open_time":"20:20","close_time":"10:39","work_time":"пн-вс с 20:20 до 10:39","phone":"1-(505)499-4911","lat":"35.5212","lng":"-105.9818"},
{"id":"39a6b6fa-88ed-45c7-a398-96cdc2fa4534","name":"Aibox","city":"Macheng","street":"13 Scofield Road","open_time":"14:26","close_time":"15:12","work_time":"пн-вс с 14:26 до 15:12","phone":"86-(503)964-0385","lat":"31.18013","lng":"115.02213"},
{"id":"57b5dfe6-aa4d-4e70-a05e-9dae03bdb1c8","name":"Jetwire","city":"Campos Sales","street":"44 Lakewood Place","open_time":"12:31","close_time":"11:51","work_time":"пн-вс с 12:31 до 11:51","phone":"55-(749)186-4499","lat":"-7.07444","lng":"-40.37611"},
{"id":"263635a5-8d13-476e-958e-caf7879acb27","name":"Twiyo","postal_code":"44916 CEDEX 9","city":"Nantes","street":"8 Oneill Way","open_time":"10:40","close_time":"14:52","work_time":"пн-вс с 10:40 до 14:52","phone":"33-(213)177-9694","lat":"47.2173","lng":"-1.5534"},
{"id":"4899decd-c6cf-45c9-8c6e-b86883f0302b","name":"Brainsphere","city":"Ambian","street":"162 Raven Point","open_time":"10:20","close_time":"16:12","work_time":"пн-вс с 10:20 до 16:12","phone":"62-(595)628-0854","lat":"-8.1999","lng":"114.9687"},
{"id":"f902c894-d0ba-4aca-9027-734749826cb9","name":"Skyble","postal_code":"619 35","city":"Trosa","street":"26634 Mifflin Hill","open_time":"20:14","close_time":"17:55","work_time":"пн-вс с 20:14 до 17:55","phone":"46-(794)581-2688","lat":"58.8962","lng":"17.5481"},
{"id":"fc5ac346-af74-4536-8d2b-f03468d8b648","name":"Dazzlesphere","city":"Riebiņi","street":"4 Gina Center","open_time":"9:43","close_time":"19:18","work_time":"пн-вс с 9:43 до 19:18","phone":"371-(214)598-0920","lat":"56.3428","lng":"26.79995"},
{"id":"a008494f-230a-41b7-91c5-085a32682eed","name":"Blogtags","city":"Kremenki","street":"93 Anhalt Terrace","open_time":"14:00","close_time":"9:15","work_time":"пн-вс с 14:00 до 9:15","phone":"7-(799)962-8430","lat":"54.88626","lng":"37.11955"},
{"id":"6bb191c5-e125-4177-b613-27ebf14f2f83","name":"Linktype","city":"Vukojevci","street":"4295 Dennis Street","open_time":"10:54","close_time":"11:54","work_time":"пн-вс с 10:54 до 11:54","phone":"385-(483)180-9078","lat":"45.47833","lng":"18.15556"},
{"id":"e7f533c8-d307-4ae9-8416-d4bc030bd11f","name":"Skimia","postal_code":"2785-366","city":"Matarraque","street":"91 Atwood Terrace","open_time":"11:31","close_time":"19:57","work_time":"пн-вс с 11:31 до 19:57","phone":"351-(648)691-2208","lat":"38.7167","lng":"-9.3667"},
{"id":"c02f1f51-1120-451e-bbe6-f8baa25f1287","name":"Topiclounge","city":"Tahala","street":"8 2nd Center","open_time":"20:46","close_time":"17:10","work_time":"пн-вс с 20:46 до 17:10","phone":"212-(916)529-3165","lat":"34.04845","lng":"-4.42795"},
{"id":"12920e0c-59bd-4d11-aced-662b0673f298","name":"Edgeclub","city":"Is","street":"01998 Bashford Hill","open_time":"8:04","close_time":"16:16","work_time":"пн-вс с 8:04 до 16:16","phone":"7-(829)842-5117","lat":"58.7909","lng":"59.7179"},
{"id":"764d8556-87ce-405c-93d3-aa4026fc7f7a","name":"Babbleblab","city":"Lucan","street":"1146 Eagan Circle","open_time":"8:07","close_time":"20:36","work_time":"пн-вс с 8:07 до 20:36","phone":"353-(995)759-0529","lat":"53.35736","lng":"-6.44859"},
{"id":"86dd7023-9aef-4326-9bf4-29112edde823","name":"Vidoo","city":"Františkovy Lázně","street":"450 Lakeland Street","open_time":"10:41","close_time":"10:11","work_time":"пн-вс с 10:41 до 10:11","phone":"420-(493)551-0757","lat":"50.12033","lng":"12.35174"}]